[{"disappear_time": 1471551548, "dist": 1765792.1516499822, "name": "Dragonair", "pokemon_id": 148, "spawnpoint_id": "88d9b427217", "longitude": -80.18502183399283, "priority": 700, "pokemon_rarity": "Very Rare", "pokemon_types": [{"color": "#7038f8", "type": "Dragon"}], "is_vip": false, "pokemon_name": "Dragonair", "latitude": 25.77284918898015, "spawn_point_id": "88d9b427217", "encounter_id": 6327715258224382205}, {"disappear_time": 1471552269, "dist": 5831452.962934433, "name": "Dragonite", "pokemon_id": 149, "spawnpoint_id": "47e66db9cf1", "longitude": 2.3952189352163207, "priority": 1000, "pokemon_rarity": "Very Rare", "pokemon_types": [{"color": "#7038f8", "type": "Dragon"}, {"color": "#a890f0", "type": "Flying"}], "is_vip": true, "pokemon_name": "Dragonite", "latitude": 48.88457372742032, "spawn_point_id": "47e66db9cf1", "encounter_id": 5151195001922450573}, {"disappear_time": 1471553579, "dist": 5685254.095383526, "name": "Aerodactyl", "pokemon_id": 142, "spawnpoint_id": "480878c8223", "longitude": -0.564270508178128, "priority": 700, "pokemon_rarity": "Very Rare", "pokemon_types": [{"color": "#b8a038", "type": "Rock"}, {"color": "#a890f0", "type": "Flying"}], "is_vip": false, "pokemon_name": "Aerodactyl", "latitude": 47.4676149726195, "spawn_point_id": "480878c8223", "encounter_id": 10736471903753699149}, {"disappear_time": 1471553695, "dist": 15990845.656716758, "name": "Dragonair", "pokemon_id": 148, "spawnpoint_id": "6b12ae70271", "longitude": 151.22203787262885, "priority": 700, "pokemon_rarity": "Very Rare", "pokemon_types": [{"color": "#7038f8", "type": "Dragon"}], "is_vip": false, "pokemon_name": "Dragonair", "latitude": -33.863513892856155, "spawn_point_id": "6b12ae70271", "encounter_id": 10277369998032316301}, {"disappear_time": 1471555209, "dist": 5838208.384926224, "name": "Vaporeon", "pokemon_id": 134, "spawnpoint_id": "47c4490b25b", "longitude": 4.30507619716243, "priority": 900, "pokemon_rarity": "Very Rare", "pokemon_types": [{"color": "#6890f0", "type": "Water"}], "is_vip": false, "pokemon_name": "Vaporeon", "latitude": 51.83628978411745, "spawn_point_id": "47c4490b25b", "encounter_id": 838330816123122733}, {"disappear_time": 1471555327, "dist": 5839016.820088662, "name": "Golduck", "pokemon_id": 55, "spawnpoint_id": "47c44998873", "longitude": 4.318494568803974, "priority": 900, "pokemon_rarity": "Very Rare", "pokemon_types": [{"color": "#6890f0", "type": "Water"}], "is_vip": false, "pokemon_name": "Golduck", "latitude": 51.83695579168728, "spawn_point_id": "47c44998873", "encounter_id": 13077056801926575517}, {"disappear_time": 1471556443, "dist": 303633.77667558135, "name": "Lapras", "pokemon_id": 131, "spawnpoint_id": "89e371c2611", "longitude": -71.01732184956101, "priority": 900, "pokemon_rarity": "Very Rare", "pokemon_types": [{"color": "#6890f0", "type": "Water"}, {"color": "#98d8d8", "type": "Ice"}], "is_vip": true, "pokemon_name": "Lapras", "latitude": 42.40130669458041, "spawn_point_id": "89e371c2611", "encounter_id": 6619016430562445341}, {"disappear_time": 1471556310, "dist": 303720.8601387865, "name": "Tentacruel", "pokemon_id": 73, "spawnpoint_id": "89e371c281f", "longitude": -71.01676466127032, "priority": 800, "pokemon_rarity": "Very Rare", "pokemon_types": [{"color": "#6890f0", "type": "Water"}, {"color": "#a040a0", "type": "Poison"}], "is_vip": false, "pokemon_name": "Tentacruel", "latitude": 42.40217533679224, "spawn_point_id": "89e371c281f", "encounter_id": 2929679588628264461}, {"disappear_time": 1471556787, "dist": 303341.6595591304, "name": "Hypno", "pokemon_id": 97, "spawnpoint_id": "89e371c395b", "longitude": -71.01834335949113, "priority": 700, "pokemon_rarity": "Rare", "pokemon_types": [{"color": "#f85888", "type": "Psychic"}], "is_vip": false, "pokemon_name": "Hypno", "latitude": 42.39881179910411, "spawn_point_id": "89e371c395b", "encounter_id": 16516435620312669293}, {"disappear_time": 1471556524, "dist": 303893.3867181347, "name": "Dratini", "pokemon_id": 147, "spawnpoint_id": "89e371e7e57", "longitude": -71.01342151588084, "priority": 800, "pokemon_rarity": "Uncommon", "pokemon_types": [{"color": "#7038f8", "type": "Dragon"}], "is_vip": false, "pokemon_name": "Dratini", "latitude": 42.40234421314948, "spawn_point_id": "89e371e7e57", "encounter_id": 6039347852079743133}, {"disappear_time": 1471556906, "dist": 1144283.5155009262, "name": "Snorlax", "pokemon_id": 143, "spawnpoint_id": "880e2b5383b", "longitude": -87.61327685141283, "priority": 900, "pokemon_rarity": "Rare", "pokemon_types": [{"color": "#8a8a59", "type": "Normal"}], "is_vip": true, "pokemon_name": "Snorlax", "latitude": 41.892254813563596, "spawn_point_id": "880e2b5383b", "encounter_id": 2687637634386300397}, {"disappear_time": 1471557060, "dist": 8260449.811386197, "name": "Rapidash", "pokemon_id": 78, "spawnpoint_id": "9662c414dcd", "longitude": -70.69672763482718, "priority": 700, "pokemon_rarity": "Very Rare", "pokemon_types": [{"color": "#f08030", "type": "Fire"}], "is_vip": false, "pokemon_name": "Rapidash", "latitude": -33.43060169463439, "spawn_point_id": "9662c414dcd", "encounter_id": 120273998235299981}, {"disappear_time": 1471558147, "dist": 5849373.784562927, "name": "Dugtrio", "pokemon_id": 51, "spawnpoint_id": "0d6c364ab41", "longitude": -4.048109928013677, "priority": 500, "pokemon_rarity": "Ultra Rare", "pokemon_types": [{"color": "#e0c068", "type": "Ground"}], "is_vip": false, "pokemon_name": "Dugtrio", "latitude": 38.03568155183251, "spawn_point_id": "0d6c364ab41", "encounter_id": 17716282769338326605}, {"disappear_time": 1471558532, "dist": 5849022.892006438, "name": "Arcanine", "pokemon_id": 59, "spawnpoint_id": "0d6c37b618b", "longitude": -4.048748473106018, "priority": 900, "pokemon_rarity": "Very Rare", "pokemon_types": [{"color": "#f08030", "type": "Fire"}], "is_vip": false, "pokemon_name": "Arcanine", "latitude": 38.042510933472556, "spawn_point_id": "0d6c37b618b", "encounter_id": 2194907096736448541}, {"disappear_time": 1471560021, "dist": 5850682.994973991, "name": "Pinsir", "pokemon_id": 127, "spawnpoint_id": "0d6c37ad263", "longitude": -4.0365376575718885, "priority": 800, "pokemon_rarity": "Uncommon", "pokemon_types": [{"color": "#a8b820", "type": "Bug"}], "is_vip": false, "pokemon_name": "Pinsir", "latitude": 38.03706902824545, "spawn_point_id": "0d6c37ad263", "encounter_id": 9748226453015954253}, {"disappear_time": 1471559639, "dist": 3597581.660223928, "name": "Jolteon", "pokemon_id": 135, "spawnpoint_id": "86bbbfa8cdf", "longitude": -108.46947380848471, "priority": 600, "pokemon_rarity": "Very Rare", "pokemon_types": [{"color": "#f8d030", "type": "Electric"}], "is_vip": false, "pokemon_name": "Jolteon", "latitude": 25.560484989706126, "spawn_point_id": "86bbbfa8cdf", "encounter_id": 3558051446091848621}, {"disappear_time": 1471560198, "dist": 3370443.0511716055, "name": "Jolteon", "pokemon_id": 135, "spawnpoint_id": "85d1ff4bfb1", "longitude": -99.17273130362122, "priority": 600, "pokemon_rarity": "Very Rare", "pokemon_types": [{"color": "#f8d030", "type": "Electric"}], "is_vip": false, "pokemon_name": "Jolteon", "latitude": 19.42603729214705, "spawn_point_id": "85d1ff4bfb1", "encounter_id": 17272456444747636317}, {"disappear_time": 1471560555, "dist": 10801237.725015303, "name": "Snorlax", "pokemon_id": 143, "spawnpoint_id": "6018b7aae9f", "longitude": 139.73035615028664, "priority": 900, "pokemon_rarity": "Rare", "pokemon_types": [{"color": "#8a8a59", "type": "Normal"}], "is_vip": true, "pokemon_name": "Snorlax", "latitude": 36.073485077700234, "spawn_point_id": "6018b7aae9f", "encounter_id": 10284670551426935581}]