[{"disappear_time": 1471687044, "dist": 858.6137880982637, "name": "Vileplume", "pokemon_id": 45, "spawnpoint_id": "89c258f1139", "longitude": -73.9752434525501, "priority": 1000, "pokemon_rarity": "Ultra Rare", "pokemon_types": [{"color": "#78c850", "type": "Grass"}, {"color": "#a040a0", "type": "Poison"}], "is_vip": false, "pokemon_name": "Vileplume", "latitude": 40.7673860520771, "spawn_point_id": "89c258f1139", "encounter_id": 17339108498273214541}, {"disappear_time": 1471686801, "dist": 5562303.143975761, "name": "Vaporeon", "pokemon_id": 134, "spawnpoint_id": "48761ada8b3", "longitude": -0.150083712310733, "priority": 900, "pokemon_rarity": "Very Rare", "pokemon_types": [{"color": "#6890f0", "type": "Water"}], "is_vip": false, "pokemon_name": "Vaporeon", "latitude": 51.5266989457065, "spawn_point_id": "48761ada8b3", "encounter_id": 14829287047717818237}, {"disappear_time": 1471686844, "dist": 1145729.0949122093, "name": "Blastoise", "pokemon_id": 9, "spawnpoint_id": "880e2c9f68d", "longitude": -87.6220702121829, "priority": 1000, "pokemon_rarity": "Very Rare", "pokemon_types": [{"color": "#6890f0", "type": "Water"}], "is_vip": false, "pokemon_name": "Blastoise", "latitude": 41.8745267249982, "spawn_point_id": "880e2c9f68d", "encounter_id": 17924735124810691165}, {"disappear_time": 1471687238, "dist": 2549145.3654913455, "name": "Chansey", "pokemon_id": 113, "spawnpoint_id": "865cf6004ab", "longitude": -98.4828317368344, "priority": 700, "pokemon_rarity": "Very Rare", "pokemon_types": [{"color": "#8a8a59", "type": "Normal"}], "is_vip": false, "pokemon_name": "Chansey", "latitude": 29.4229684474754, "spawn_point_id": "865cf6004ab", "encounter_id": 926793056325990173}, {"disappear_time": 1471687289, "dist": 5766505.881877469, "name": "Rapidash", "pokemon_id": 78, "spawnpoint_id": "0d42260d05d", "longitude": -3.67044447619386, "priority": 700, "pokemon_rarity": "Very Rare", "pokemon_types": [{"color": "#f08030", "type": "Fire"}], "is_vip": false, "pokemon_name": "Rapidash", "latitude": 40.3957461385944, "spawn_point_id": "0d42260d05d", "encounter_id": 87918529627960365}, {"disappear_time": 1471687586, "dist": 5830898.310896358, "name": "Dewgong", "pokemon_id": 87, "spawnpoint_id": "47c5b14bb6b", "longitude": 4.28512471491037, "priority": 500, "pokemon_rarity": "Ultra Rare", "pokemon_types": [{"color": "#6890f0", "type": "Water"}, {"color": "#98d8d8", "type": "Ice"}], "is_vip": false, "pokemon_name": "Dewgong", "latitude": 52.0467681075289, "spawn_point_id": "47c5b14bb6b", "encounter_id": 6077667414280603981}, {"disappear_time": 1471688495, "dist": 5831120.072692951, "name": "Dratini", "pokemon_id": 147, "spawnpoint_id": "47c5b14a963", "longitude": 4.28828324318788, "priority": 800, "pokemon_rarity": "Uncommon", "pokemon_types": [{"color": "#7038f8", "type": "Dragon"}], "is_vip": false, "pokemon_name": "Dratini", "latitude": 52.0488096358154, "spawn_point_id": "47c5b14a963", "encounter_id": 646204562933861981}, {"disappear_time": 1471688144, "dist": 5831163.979898905, "name": "Dratini", "pokemon_id": 147, "spawnpoint_id": "47c5b14ac75", "longitude": 4.28871158876341, "priority": 800, "pokemon_rarity": "Uncommon", "pokemon_types": [{"color": "#7038f8", "type": "Dragon"}], "is_vip": false, "pokemon_name": "Dratini", "latitude": 52.0482964355254, "spawn_point_id": "47c5b14ac75", "encounter_id": 7881902637477449325}, {"disappear_time": 1471688148, "dist": 15992788.825742671, "name": "Kangaskhan", "pokemon_id": 115, "spawnpoint_id": "6b12ae20619", "longitude": 151.207466624492, "priority": 800, "pokemon_rarity": "Ultra Rare", "pokemon_types": [{"color": "#8a8a59", "type": "Normal"}], "is_vip": false, "pokemon_name": "Kangaskhan", "latitude": -33.8877854257666, "spawn_point_id": "6b12ae20619", "encounter_id": 7603402046507989405}, {"disappear_time": 1471688118, "dist": 15992724.17349696, "name": "Pinsir", "pokemon_id": 127, "spawnpoint_id": "6b12ae21ab3", "longitude": 151.207557690632, "priority": 800, "pokemon_rarity": "Uncommon", "pokemon_types": [{"color": "#a8b820", "type": "Bug"}], "is_vip": false, "pokemon_name": "Pinsir", "latitude": -33.8862101995578, "spawn_point_id": "6b12ae21ab3", "encounter_id": 15157317681593102557}, {"disappear_time": 1471688500, "dist": 15992716.19124221, "name": "Pinsir", "pokemon_id": 127, "spawnpoint_id": "6b12ae1fedb", "longitude": 151.211109310935, "priority": 800, "pokemon_rarity": "Uncommon", "pokemon_types": [{"color": "#a8b820", "type": "Bug"}], "is_vip": false, "pokemon_name": "Pinsir", "latitude": -33.8886320613606, "spawn_point_id": "6b12ae1fedb", "encounter_id": 11723354302360153437}, {"disappear_time": 1471688182, "dist": 5847646.78201293, "name": "Snorlax", "pokemon_id": 143, "spawnpoint_id": "47c2edb59b1", "longitude": 3.50594889032544, "priority": 900, "pokemon_rarity": "Rare", "pokemon_types": [{"color": "#8a8a59", "type": "Normal"}], "is_vip": true, "pokemon_name": "Snorlax", "latitude": 50.3566591105386, "spawn_point_id": "47c2edb59b1", "encounter_id": 5236232402020873309}, {"disappear_time": 1471690264, "dist": 16166645.963619, "name": "Pinsir", "pokemon_id": 127, "spawnpoint_id": "2e69f63f691", "longitude": 106.790046749125, "priority": 800, "pokemon_rarity": "Uncommon", "pokemon_types": [{"color": "#a8b820", "type": "Bug"}], "is_vip": false, "pokemon_name": "Pinsir", "latitude": -6.1562781739644, "spawn_point_id": "2e69f63f691", "encounter_id": 15756413120373891261}, {"disappear_time": 1471690449, "dist": 15763628.33085952, "name": "Arcanine", "pokemon_id": 59, "spawnpoint_id": "2de423b1379", "longitude": 114.579342917582, "priority": 900, "pokemon_rarity": "Very Rare", "pokemon_types": [{"color": "#f08030", "type": "Fire"}], "is_vip": true, "pokemon_name": "Arcanine", "latitude": -3.30764733119095, "spawn_point_id": "2de423b1379", "encounter_id": 17626665697995289357}, {"disappear_time": 1471692337, "dist": 15764373.765167033, "name": "Pinsir", "pokemon_id": 127, "spawnpoint_id": "2de423c7c23", "longitude": 114.584725102448, "priority": 800, "pokemon_rarity": "Uncommon", "pokemon_types": [{"color": "#a8b820", "type": "Bug"}], "is_vip": false, "pokemon_name": "Pinsir", "latitude": -3.31391845612447, "spawn_point_id": "2de423c7c23", "encounter_id": 14125737387723894861}, {"disappear_time": 1471692952, "dist": 5844235.771638194, "name": "Flareon", "pokemon_id": 136, "spawnpoint_id": "0d5a48b497f", "longitude": -1.5971454702259, "priority": 900, "pokemon_rarity": "Ultra Rare", "pokemon_types": [{"color": "#f08030", "type": "Fire"}], "is_vip": false, "pokemon_name": "Flareon", "latitude": 42.0516068425991, "spawn_point_id": "0d5a48b497f", "encounter_id": 16870934521455102861}, {"disappear_time": 1471693584, "dist": 4197.577688504162, "name": "Blastoise", "pokemon_id": 9, "spawnpoint_id": "89c258525d1", "longitude": -73.9931494764285, "priority": 1000, "pokemon_rarity": "Very Rare", "pokemon_types": [{"color": "#6890f0", "type": "Water"}], "is_vip": false, "pokemon_name": "Blastoise", "latitude": 40.7595091339281, "spawn_point_id": "89c258525d1", "encounter_id": 7486850993424654413}, {"disappear_time": 1471698290, "dist": 5826921.8325473005, "name": "Hypno", "pokemon_id": 97, "spawnpoint_id": "47e66ffb14f", "longitude": 2.28727578919616, "priority": 700, "pokemon_rarity": "Rare", "pokemon_types": [{"color": "#f85888", "type": "Psychic"}], "is_vip": false, "pokemon_name": "Hypno", "latitude": 48.8637831308118, "spawn_point_id": "47e66ffb14f", "encounter_id": 13436535460004904141}, {"disappear_time": 1471698548, "dist": 5827252.462208183, "name": "Tentacruel", "pokemon_id": 73, "spawnpoint_id": "47e66fe6fc9", "longitude": 2.29705032787431, "priority": 800, "pokemon_rarity": "Very Rare", "pokemon_types": [{"color": "#6890f0", "type": "Water"}, {"color": "#a040a0", "type": "Poison"}], "is_vip": false, "pokemon_name": "Tentacruel", "latitude": 48.8642186656884, "spawn_point_id": "47e66fe6fc9", "encounter_id": 11131859652727053597}, {"disappear_time": 1471698686, "dist": 5827056.412778469, "name": "Dratini", "pokemon_id": 147, "spawnpoint_id": "47e66fe6e4b", "longitude": 2.29694999934607, "priority": 800, "pokemon_rarity": "Uncommon", "pokemon_types": [{"color": "#7038f8", "type": "Dragon"}], "is_vip": false, "pokemon_name": "Dratini", "latitude": 48.8640633134549, "spawn_point_id": "47e66fe6e4b", "encounter_id": 3070377562939130077}, {"disappear_time": 1471698895, "dist": 5826861.210982649, "name": "Pinsir", "pokemon_id": 127, "spawnpoint_id": "47e66fe102f", "longitude": 2.29690124363238, "priority": 800, "pokemon_rarity": "Uncommon", "pokemon_types": [{"color": "#a8b820", "type": "Bug"}], "is_vip": false, "pokemon_name": "Pinsir", "latitude": 48.8602094394338, "spawn_point_id": "47e66fe102f", "encounter_id": 14097683552323055613}, {"disappear_time": 1471699794, "dist": 5826829.712907342, "name": "Scyther", "pokemon_id": 123, "spawnpoint_id": "47e66fe0ea3", "longitude": 2.29817853381819, "priority": 700, "pokemon_rarity": "Rare", "pokemon_types": [{"color": "#a8b820", "type": "Bug"}, {"color": "#a890f0", "type": "Flying"}], "is_vip": false, "pokemon_name": "Scyther", "latitude": 48.8608133927023, "spawn_point_id": "47e66fe0ea3", "encounter_id": 2763908623375495869}, {"disappear_time": 1471700318, "dist": 5825838.693547719, "name": "Hypno", "pokemon_id": 97, "spawnpoint_id": "47e66fefb6d", "longitude": 2.29106739739957, "priority": 700, "pokemon_rarity": "Rare", "pokemon_types": [{"color": "#f85888", "type": "Psychic"}], "is_vip": false, "pokemon_name": "Hypno", "latitude": 48.8694514016155, "spawn_point_id": "47e66fefb6d", "encounter_id": 16744003395688699421}, {"disappear_time": 1471701183, "dist": 3963496.9579112222, "name": "Aerodactyl", "pokemon_id": 142, "spawnpoint_id": "80c2a4da465", "longitude": -118.5001271327, "priority": 700, "pokemon_rarity": "Very Rare", "pokemon_types": [{"color": "#b8a038", "type": "Rock"}, {"color": "#a890f0", "type": "Flying"}], "is_vip": false, "pokemon_name": "Aerodactyl", "latitude": 34.0103067397062, "spawn_point_id": "80c2a4da465", "encounter_id": 8996118788163070493}, {"disappear_time": 1471704507, "dist": 5831274.445201281, "name": "Gyarados", "pokemon_id": 130, "spawnpoint_id": "47e66dcc5dd", "longitude": 2.38535276694708, "priority": 900, "pokemon_rarity": "Ultra Rare", "pokemon_types": [{"color": "#6890f0", "type": "Water"}, {"color": "#a890f0", "type": "Flying"}], "is_vip": false, "pokemon_name": "Gyarados", "latitude": 48.8928062408627, "spawn_point_id": "47e66dcc5dd", "encounter_id": 2005474850058976061}, {"disappear_time": 1471704780, "dist": 5831339.21058514, "name": "Dratini", "pokemon_id": 147, "spawnpoint_id": "47e66dcb66d", "longitude": 2.38740452142872, "priority": 800, "pokemon_rarity": "Uncommon", "pokemon_types": [{"color": "#7038f8", "type": "Dragon"}], "is_vip": false, "pokemon_name": "Dratini", "latitude": 48.8941807924267, "spawn_point_id": "47e66dcb66d", "encounter_id": 3484316132851952397}, {"disappear_time": 1471709629, "dist": 16704643.928700631, "name": "Kangaskhan", "pokemon_id": 115, "spawnpoint_id": "6ad6ed77f7b", "longitude": 144.598400719939, "priority": 800, "pokemon_rarity": "Ultra Rare", "pokemon_types": [{"color": "#8a8a59", "type": "Normal"}], "is_vip": false, "pokemon_name": "Kangaskhan", "latitude": -37.6699867531395, "spawn_point_id": "6ad6ed77f7b", "encounter_id": 17092899877294686621}, {"disappear_time": 1471712477, "dist": 16706381.026112951, "name": "Pinsir", "pokemon_id": 127, "spawnpoint_id": "6ad6ed0b13f", "longitude": 144.585808613862, "priority": 800, "pokemon_rarity": "Uncommon", "pokemon_types": [{"color": "#a8b820", "type": "Bug"}], "is_vip": false, "pokemon_name": "Pinsir", "latitude": -37.6682091182305, "spawn_point_id": "6ad6ed0b13f", "encounter_id": 16925173500807412317}, {"disappear_time": 1471713052, "dist": 16706907.896211008, "name": "Rhydon", "pokemon_id": 112, "spawnpoint_id": "6ad6ed40017", "longitude": 144.58786433541, "priority": 800, "pokemon_rarity": "Very Rare", "pokemon_types": [{"color": "#e0c068", "type": "Ground"}, {"color": "#b8a038", "type": "Rock"}], "is_vip": false, "pokemon_name": "Rhydon", "latitude": -37.6845194921283, "spawn_point_id": "6ad6ed40017", "encounter_id": 17071841274188717293}, {"disappear_time": 1471714323, "dist": 16707917.545953037, "name": "Arcanine", "pokemon_id": 59, "spawnpoint_id": "6ad6ed3d775", "longitude": 144.579042229131, "priority": 900, "pokemon_rarity": "Very Rare", "pokemon_types": [{"color": "#f08030", "type": "Fire"}], "is_vip": true, "pokemon_name": "Arcanine", "latitude": -37.6819219755982, "spawn_point_id": "6ad6ed3d775", "encounter_id": 15111696334226807869}, {"disappear_time": 1471715132, "dist": 16706378.134536793, "name": "Kangaskhan", "pokemon_id": 115, "spawnpoint_id": "6ad6ed71071", "longitude": 144.595316759514, "priority": 800, "pokemon_rarity": "Ultra Rare", "pokemon_types": [{"color": "#8a8a59", "type": "Normal"}], "is_vip": false, "pokemon_name": "Kangaskhan", "latitude": -37.6751248341284, "spawn_point_id": "6ad6ed71071", "encounter_id": 6339203572601341453}, {"disappear_time": 1471714917, "dist": 16706918.06288478, "name": "Kangaskhan", "pokemon_id": 115, "spawnpoint_id": "6ad6ed7331d", "longitude": 144.588035647873, "priority": 800, "pokemon_rarity": "Ultra Rare", "pokemon_types": [{"color": "#8a8a59", "type": "Normal"}], "is_vip": false, "pokemon_name": "Kangaskhan", "latitude": -37.6721105733835, "spawn_point_id": "6ad6ed7331d", "encounter_id": 9029316686319422317}, {"disappear_time": 1471716778, "dist": 16706527.760185031, "name": "Sandslash", "pokemon_id": 28, "spawnpoint_id": "6ad6ed0b9c1", "longitude": 144.58452381416, "priority": 700, "pokemon_rarity": "Ultra Rare", "pokemon_types": [{"color": "#e0c068", "type": "Ground"}], "is_vip": false, "pokemon_name": "Sandslash", "latitude": -37.6683505733745, "spawn_point_id": "6ad6ed0b9c1", "encounter_id": 14088456383959832877}, {"disappear_time": 1471719089, "dist": 16705758.489415329, "name": "Golem", "pokemon_id": 76, "spawnpoint_id": "6ad6ed749d5", "longitude": 144.589577476206, "priority": 900, "pokemon_rarity": "Ultra Rare", "pokemon_types": [{"color": "#b8a038", "type": "Rock"}, {"color": "#e0c068", "type": "Ground"}], "is_vip": false, "pokemon_name": "Golem", "latitude": -37.6708907780176, "spawn_point_id": "6ad6ed749d5", "encounter_id": 8024060141708781037}]