[{"disappear_time": 1471510802, "dist": 5830995.766681363, "name": "Pidgeot", "pokemon_id": 18, "spawnpoint_id": "47e66ff0041", "longitude": 2.2888252441285304, "priority": 700, "pokemon_rarity": "Rare", "pokemon_types": [{"color": "#8a8a59", "type": "Normal"}, {"color": "#a890f0", "type": "Flying"}], "is_vip": false, "pokemon_name": "Pidgeot", "latitude": 48.86776488436219, "spawn_point_id": "47e66ff0041", "encounter_id": 10319450234744668749}, {"disappear_time": 1471512457, "dist": 4140901.619392177, "name": "Vaporeon", "pokemon_id": 134, "spawnpoint_id": "808586ffe1b", "longitude": -122.49081500014735, "priority": 900, "pokemon_rarity": "Very Rare", "pokemon_types": [{"color": "#6890f0", "type": "Water"}], "is_vip": false, "pokemon_name": "Vaporeon", "latitude": 37.788332155624495, "spawn_point_id": "808586ffe1b", "encounter_id": 17244005416940529037}, {"disappear_time": 1471519963, "dist": 5765652.37451706, "name": "Pidgeot", "pokemon_id": 18, "spawnpoint_id": "0d422880353", "longitude": -3.7004028406275467, "priority": 700, "pokemon_rarity": "Rare", "pokemon_types": [{"color": "#8a8a59", "type": "Normal"}, {"color": "#a890f0", "type": "Flying"}], "is_vip": false, "pokemon_name": "Pidgeot", "latitude": 40.41411998882268, "spawn_point_id": "0d422880353", "encounter_id": 8531732217131165117}, {"disappear_time": 1471520394, "dist": 3911067.2702040863, "name": "Dragonair", "pokemon_id": 148, "spawnpoint_id": "54867196c0d", "longitude": -123.11634285739379, "priority": 700, "pokemon_rarity": "Very Rare", "pokemon_types": [{"color": "#7038f8", "type": "Dragon"}], "is_vip": false, "pokemon_name": "Dragonair", "latitude": 49.300180830390715, "spawn_point_id": "54867196c0d", "encounter_id": 1443296409173727021}, {"disappear_time": 1471520310, "dist": 3911231.416290113, "name": "Golduck", "pokemon_id": 55, "spawnpoint_id": "5486719145f", "longitude": -123.11914923819893, "priority": 900, "pokemon_rarity": "Very Rare", "pokemon_types": [{"color": "#6890f0", "type": "Water"}], "is_vip": false, "pokemon_name": "Golduck", "latitude": 49.299809136084654, "spawn_point_id": "5486719145f", "encounter_id": 7745686752275722509}, {"disappear_time": 1471521741, "dist": 12963914.420344362, "name": "Snorlax", "pokemon_id": 143, "spawnpoint_id": "3404007e63d", "longitude": 114.14881234091598, "priority": 900, "pokemon_rarity": "Rare", "pokemon_types": [{"color": "#8a8a59", "type": "Normal"}], "is_vip": true, "pokemon_name": "Snorlax", "latitude": 22.287361157787966, "spawn_point_id": "3404007e63d", "encounter_id": 15215093102247193229}, {"disappear_time": 1471522324, "dist": 15821585.358411422, "name": "Snorlax", "pokemon_id": 143, "spawnpoint_id": "2e3b76082e3", "longitude": 104.75277758344629, "priority": 900, "pokemon_rarity": "Rare", "pokemon_types": [{"color": "#8a8a59", "type": "Normal"}], "is_vip": true, "pokemon_name": "Snorlax", "latitude": -2.984069117374441, "spawn_point_id": "2e3b76082e3", "encounter_id": 4577258523126157341}, {"disappear_time": 1471522934, "dist": 1516455.3754464744, "name": "Snorlax", "pokemon_id": 143, "spawnpoint_id": "88e77c91161", "longitude": -81.36885644457224, "priority": 900, "pokemon_rarity": "Rare", "pokemon_types": [{"color": "#8a8a59", "type": "Normal"}], "is_vip": true, "pokemon_name": "Snorlax", "latitude": 28.47646906596916, "spawn_point_id": "88e77c91161", "encounter_id": 8163557109129529517}, {"disappear_time": 1471529538, "dist": 12959093.298579212, "name": "Dragonite", "pokemon_id": 149, "spawnpoint_id": "340400c97cb", "longitude": 114.17138504582222, "priority": 1000, "pokemon_rarity": "Very Rare", "pokemon_types": [{"color": "#7038f8", "type": "Dragon"}, {"color": "#a890f0", "type": "Flying"}], "is_vip": true, "pokemon_name": "Dragonite", "latitude": 22.325139177045894, "spawn_point_id": "340400c97cb", "encounter_id": 11548416778175349661}, {"disappear_time": 1471529720, "dist": 15496366.734064845, "name": "Dragonair", "pokemon_id": 148, "spawnpoint_id": "2df147c38a9", "longitude": 116.82619617671735, "priority": 700, "pokemon_rarity": "Very Rare", "pokemon_types": [{"color": "#7038f8", "type": "Dragon"}], "is_vip": false, "pokemon_name": "Dragonair", "latitude": -1.230970712368768, "spawn_point_id": "2df147c38a9", "encounter_id": 11533863985597735405}, {"disappear_time": 1471530079, "dist": 15496281.265745072, "name": "Dratini", "pokemon_id": 147, "spawnpoint_id": "2df147c2605", "longitude": 116.82168578569876, "priority": 800, "pokemon_rarity": "Uncommon", "pokemon_types": [{"color": "#7038f8", "type": "Dragon"}], "is_vip": false, "pokemon_name": "Dratini", "latitude": -1.230144892682171, "spawn_point_id": "2df147c2605", "encounter_id": 6267546267729731805}, {"disappear_time": 1471531987, "dist": 15495702.399843961, "name": "Scyther", "pokemon_id": 123, "spawnpoint_id": "2df147c3921", "longitude": 116.82545979272572, "priority": 700, "pokemon_rarity": "Rare", "pokemon_types": [{"color": "#a8b820", "type": "Bug"}, {"color": "#a890f0", "type": "Flying"}], "is_vip": false, "pokemon_name": "Scyther", "latitude": -1.2308441281986506, "spawn_point_id": "2df147c3921", "encounter_id": 7434829661724946413}, {"disappear_time": 1471533403, "dist": 12960361.77007725, "name": "Gengar", "pokemon_id": 94, "spawnpoint_id": "340400c34a1", "longitude": 114.1792805763919, "priority": 800, "pokemon_rarity": "Ultra Rare", "pokemon_types": [{"color": "#705898", "type": "Ghost"}, {"color": "#a040a0", "type": "Poison"}], "is_vip": false, "pokemon_name": "Gengar", "latitude": 22.311686824090884, "spawn_point_id": "340400c34a1", "encounter_id": 12054813559377017101}, {"disappear_time": 1471534568, "dist": 1199672.5684071188, "name": "Aerodactyl", "pokemon_id": 142, "spawnpoint_id": "88f5047a9e7", "longitude": -84.38586735554438, "priority": 700, "pokemon_rarity": "Very Rare", "pokemon_types": [{"color": "#b8a038", "type": "Rock"}, {"color": "#a890f0", "type": "Flying"}], "is_vip": false, "pokemon_name": "Aerodactyl", "latitude": 33.76782301107667, "spawn_point_id": "88f5047a9e7", "encounter_id": 935456383841164637}, {"disappear_time": 1471536702, "dist": 12955681.887306191, "name": "Dragonair", "pokemon_id": 148, "spawnpoint_id": "3403fb444d3", "longitude": 113.9685621375923, "priority": 700, "pokemon_rarity": "Very Rare", "pokemon_types": [{"color": "#7038f8", "type": "Dragon"}], "is_vip": false, "pokemon_name": "Dragonair", "latitude": 22.37768153654361, "spawn_point_id": "3403fb444d3", "encounter_id": 4674928345179044493}, {"disappear_time": 1471537290, "dist": 6887652.19186375, "name": "Vaporeon", "pokemon_id": 134, "spawnpoint_id": "132f60f7fd1", "longitude": 12.471871400462863, "priority": 900, "pokemon_rarity": "Very Rare", "pokemon_types": [{"color": "#6890f0", "type": "Water"}], "is_vip": false, "pokemon_name": "Vaporeon", "latitude": 41.9093155800902, "spawn_point_id": "132f60f7fd1", "encounter_id": 6946999239890482813}, {"disappear_time": 1471537364, "dist": 6887887.82177707, "name": "Slowbro", "pokemon_id": 80, "spawnpoint_id": "132f6057c23", "longitude": 12.474021461254939, "priority": 900, "pokemon_rarity": "Very Rare", "pokemon_types": [{"color": "#6890f0", "type": "Water"}, {"color": "#f85888", "type": "Psychic"}], "is_vip": false, "pokemon_name": "Slowbro", "latitude": 41.908086322537436, "spawn_point_id": "132f6057c23", "encounter_id": 8456704500487934125}, {"disappear_time": 1471537430, "dist": 6887936.121150383, "name": "Ivysaur", "pokemon_id": 2, "spawnpoint_id": "132f60565a1", "longitude": 12.476081974287302, "priority": 500, "pokemon_rarity": "Rare", "pokemon_types": [{"color": "#78c850", "type": "Grass"}, {"color": "#a040a0", "type": "Poison"}], "is_vip": false, "pokemon_name": "Ivysaur", "latitude": 41.90663773111984, "spawn_point_id": "132f60565a1", "encounter_id": 4826083915342134845}, {"disappear_time": 1471538349, "dist": 15501906.628931303, "name": "Venomoth", "pokemon_id": 49, "spawnpoint_id": "2df147251c5", "longitude": 116.8341121472961, "priority": 500, "pokemon_rarity": "Rare", "pokemon_types": [{"color": "#a8b820", "type": "Bug"}, {"color": "#a040a0", "type": "Poison"}], "is_vip": false, "pokemon_name": "Venomoth", "latitude": -1.2774756006279935, "spawn_point_id": "2df147251c5", "encounter_id": 15489206021391267789}, {"disappear_time": 1471538486, "dist": 15993953.992687518, "name": "Snorlax", "pokemon_id": 143, "spawnpoint_id": "6b12afb4333", "longitude": 151.18206121916754, "priority": 900, "pokemon_rarity": "Rare", "pokemon_types": [{"color": "#8a8a59", "type": "Normal"}], "is_vip": true, "pokemon_name": "Snorlax", "latitude": -33.859261671870165, "spawn_point_id": "6b12afb4333", "encounter_id": 9206914065091563917}, {"disappear_time": 1471539136, "dist": 15993540.354745742, "name": "Electabuzz", "pokemon_id": 125, "spawnpoint_id": "6b12afb39d5", "longitude": 151.1839733118151, "priority": 600, "pokemon_rarity": "Rare", "pokemon_types": [{"color": "#f8d030", "type": "Electric"}], "is_vip": false, "pokemon_name": "Electabuzz", "latitude": -33.85655110051187, "spawn_point_id": "6b12afb39d5", "encounter_id": 11046469655561906269}, {"disappear_time": 1471539966, "dist": 15993846.251352057, "name": "Arcanine", "pokemon_id": 59, "spawnpoint_id": "6b12afb1583", "longitude": 151.1809686051996, "priority": 900, "pokemon_rarity": "Very Rare", "pokemon_types": [{"color": "#f08030", "type": "Fire"}], "is_vip": false, "pokemon_name": "Arcanine", "latitude": -33.85578632462195, "spawn_point_id": "6b12afb1583", "encounter_id": 2567107864710952573}, {"disappear_time": 1471540717, "dist": 777066.2753185396, "name": "Tentacruel", "pokemon_id": 73, "spawnpoint_id": "883b2cd8121", "longitude": -83.03542436202689, "priority": 800, "pokemon_rarity": "Very Rare", "pokemon_types": [{"color": "#6890f0", "type": "Water"}, {"color": "#a040a0", "type": "Poison"}], "is_vip": false, "pokemon_name": "Tentacruel", "latitude": 42.328879205752955, "spawn_point_id": "883b2cd8121", "encounter_id": 2376387333459849069}, {"disappear_time": 1471540117, "dist": 777677.731596113, "name": "Pinsir", "pokemon_id": 127, "spawnpoint_id": "883b2d2f46b", "longitude": -83.04247267060158, "priority": 800, "pokemon_rarity": "Uncommon", "pokemon_types": [{"color": "#a8b820", "type": "Bug"}], "is_vip": false, "pokemon_name": "Pinsir", "latitude": 42.33122183430128, "spawn_point_id": "883b2d2f46b", "encounter_id": 11274283311117921197}, {"disappear_time": 1471540377, "dist": 1148565.0780194907, "name": "Vaporeon", "pokemon_id": 134, "spawnpoint_id": "880fd34d831", "longitude": -87.62901114482612, "priority": 900, "pokemon_rarity": "Very Rare", "pokemon_types": [{"color": "#6890f0", "type": "Water"}], "is_vip": false, "pokemon_name": "Vaporeon", "latitude": 41.89792828675477, "spawn_point_id": "880fd34d831", "encounter_id": 6641632422610844413}, {"disappear_time": 1471540567, "dist": 777616.1692180515, "name": "Hypno", "pokemon_id": 97, "spawnpoint_id": "883b2d2f505", "longitude": -83.04205314954105, "priority": 700, "pokemon_rarity": "Rare", "pokemon_types": [{"color": "#f85888", "type": "Psychic"}], "is_vip": false, "pokemon_name": "Hypno", "latitude": 42.33073694125674, "spawn_point_id": "883b2d2f505", "encounter_id": 7136200861490843293}, {"disappear_time": 1471540779, "dist": 3588888.710537832, "name": "Pinsir", "pokemon_id": 127, "spawnpoint_id": "80c8c3a3e0b", "longitude": -115.14773762310364, "priority": 800, "pokemon_rarity": "Uncommon", "pokemon_types": [{"color": "#a8b820", "type": "Bug"}], "is_vip": false, "pokemon_name": "Pinsir", "latitude": 36.17328079566046, "spawn_point_id": "80c8c3a3e0b", "encounter_id": 15900481371867770253}, {"disappear_time": 1471541268, "dist": 15200.850281095598, "name": "Arcanine", "pokemon_id": 59, "spawnpoint_id": "89c2f66cc99", "longitude": -73.95200905138213, "priority": 900, "pokemon_rarity": "Very Rare", "pokemon_types": [{"color": "#f08030", "type": "Fire"}], "is_vip": false, "pokemon_name": "Arcanine", "latitude": 40.81028813263053, "spawn_point_id": "89c2f66cc99", "encounter_id": 17804361276868490941}, {"disappear_time": 1471541564, "dist": 15491579.678832572, "name": "Dugtrio", "pokemon_id": 51, "spawnpoint_id": "2fd538e9f89", "longitude": 100.37273029715519, "priority": 500, "pokemon_rarity": "Ultra Rare", "pokemon_types": [{"color": "#e0c068", "type": "Ground"}], "is_vip": false, "pokemon_name": "Dugtrio", "latitude": -0.31783696820391333, "spawn_point_id": "2fd538e9f89", "encounter_id": 300876890071498413}]